name,lat,lon
Ho Chi Minh City,10.8231,106.6297
Ha Noi,21.0278,105.8342
Da Nang,16.0600,108.2111
Can Tho,10.0452,105.7469
Hai Phong,20.8449,106.6881
Nha Trang,12.2529,109.1899
Hue,16.4637,107.5909
Vung Tau,10.4114,107.1362
Quy Nhon,13.7830,109.2197
Ly Son,15.3834,109.1107
Phu Quoc,10.2899,103.9840
